[
    {"dustboy_name":"เทศบาลนครสกลนคร","dustboy_lat":"17.155455","dustboy_lon":"104.145571","phase":"3","area":"ตะวันออกเฉียงเหนือ"},
    {"dustboy_name":"เทศบาลตำบลตองโขบ","dustboy_lat":"17.0525927","dustboy_lon":"104.2580742","phase":"3","area":"ตะวันออกเฉียงเหนือ"},
    {"dustboy_name":"องค์การบริหารส่วนตำบลเต่างอย","dustboy_lat":"16.9922192","dustboy_lon":"104.1683493","phase":"3","area":"ตะวันออกเฉียงเหนือ"},
    {"dustboy_name":"เทศบาลตำบลนาแก้ว","dustboy_lat":"17.1285229","dustboy_lon":"104.0847618","phase":"3","area":"ตะวันออกเฉียงเหนือ"},
    {"dustboy_name":"เทศบาลตำบลกุสุมาลย์","dustboy_lat":"17.1631386","dustboy_lon":"104.1094635","phase":"3","area":"ตะวันออกเฉียงเหนือ"},
    {"dustboy_name":"เทศบาลตำบลโคกภู","dustboy_lat":"17.00632","dustboy_lon":"103.9144501","phase":"3","area":"ตะวันออกเฉียงเหนือ"},
    {"dustboy_name":"เทศบาลตำบลกุดบาก","dustboy_lat":"17.0446417","dustboy_lon":"103.7060008","phase":"3","area":"ตะวันออกเฉียงเหนือ"},
    {"dustboy_name":"เทศบาลตำบลพรรณานิคม","dustboy_lat":"17.346064","dustboy_lon":"103.848127","phase":"3","area":"ตะวันออกเฉียงเหนือ"},
    {"dustboy_name":"เทศบาลตำบลพังโคน","dustboy_lat":"17.3924741","dustboy_lon":"103.7062543","phase":"3","area":"ตะวันออกเฉียงเหนือ"},
    {"dustboy_name":"องค์การบริส่วนตำบลนิคมน้ำอูน","dustboy_lat":"17.2039953","dustboy_lon":"103.685043","phase":"3","area":"ตะวันออกเฉียงเหนือ"},
    {"dustboy_name":"เทศบาลตำบลวาริชภูมิ","dustboy_lat":"17.2915182","dustboy_lon":"103.6448431","phase":"3","area":"ตะวันออกเฉียงเหนือ"},
    {"dustboy_name":"เทศบาลตำบลส่องดาว","dustboy_lat":"17.3375776","dustboy_lon":"103.466863","phase":"3","area":"ตะวันออกเฉียงเหนือ"},
    {"dustboy_name":"เทศบาลตำบลสว่างแดนดิน","dustboy_lat":"17.4600553","dustboy_lon":"103.3989002","phase":"3","area":"ตะวันออกเฉียงเหนือ"},
    {"dustboy_name":"เทศบาลตำบลเจริญศิลป์","dustboy_lat":"17.5795079","dustboy_lon":"103.5394104","phase":"3","area":"ตะวันออกเฉียงเหนือ"},
    {"dustboy_name":"เทศบาลตำบลวานรนิวาส","dustboy_lat":"17.5631039","dustboy_lon":"103.5130082","phase":"3","area":"ตะวันออกเฉียงเหนือ"},
    {"dustboy_name":"เทศบาลตำบลอากาศอำนวย","dustboy_lat":"17.5899033","dustboy_lon":"103.9836984","phase":"3","area":"ตะวันออกเฉียงเหนือ"},
    {"dustboy_name":"เทศบาลตำบลคำตากล้า","dustboy_lat":"17.8378315","dustboy_lon":"103.7615599","phase":"3","area":"ตะวันออกเฉียงเหนือ"},
    {"dustboy_name":"เทศบาลตำบลบ้านม่วง","dustboy_lat":"18.0034878","dustboy_lon":"103.4202553","phase":"3","area":"ตะวันออกเฉียงเหนือ"},
    {"dustboy_name":"ค่ายกฤษศิวะรา","dustboy_lat":"17.189485","dustboy_lon":"104.115481","phase":"3","area":"ตะวันออกเฉียงเหนือ"},
    {"dustboy_name":"สำนักงานทรัพยากรธรรมชาติและสิ่งแวดล้อมจังหวัดสกลนคร","dustboy_lat":"17.157559","dustboy_lon":"104.133215","phase":"3","area":"ตะวันออกเฉียงเหนือ"},
    {"dustboy_name":"รพ.สต.บ้านหนองมะเกลือ ตำบลโนนค้อ อำเภอโนนคูณ จังหวัดศรีสะเกษ","dustboy_lat":"14.887334","dustboy_lon":"104.693418","phase":"3","area":"ตะวันออกเฉียงเหนือ"},
    {"dustboy_name":"รพ.สต.บ้านซำขี้เหล็ก ตำบลพราน อำเภอขุนหาญ จังหวัดศรีสะเกษ","dustboy_lat":"14.55385571","dustboy_lon":"104.5139142","phase":"3","area":"ตะวันออกเฉียงเหนือ"},
    {"dustboy_name":"สำนักงานสาธารณสุขอำเภอกันทรลักษ์ จังหวัดศรีสะเกษ","dustboy_lat":"14.637194","dustboy_lon":"104.654639","phase":"3","area":"ตะวันออกเฉียงเหนือ"},
    {"dustboy_name":"คณะวิทยาศาสตร์ มหาวิทยาลัยราชภัฎอุดรธานี ศูนย์การศึกษาสามพร้าว","dustboy_lat":"17.4514928","dustboy_lon":"102.9359189","phase":"3","area":"ตะวันออกเฉียงเหนือ"},
    {"dustboy_name":"คณะพยาบาลศาสตร์ มหาวิทยาลัยราชภัฎอุดรธานี ศูนย์การศึกษาสามพร้าว","dustboy_lat":"17.4511455","dustboy_lon":"102.935073","phase":"3","area":"ตะวันออกเฉียงเหนือ"},
    {"dustboy_name":"คณะเทคโนโลยี มหาวิทยาลัยราชภัฎอุดรธานี ศูนย์การศึกษาสามพร้าว","dustboy_lat":"17.4496943","dustboy_lon":"102.9352929","phase":"3","area":"ตะวันออกเฉียงเหนือ"},
    {"dustboy_name":"ศูนย์วิทยบริการ มหาวิทยาลัยราชภัฎอุดรธานี ศูนย์การศึกษาสามพร้าว","dustboy_lat":"17.4500097","dustboy_lon":"102.9339817","phase":"3","area":"ตะวันออกเฉียงเหนือ"},
    {"dustboy_name":"คณะมนุษยศาสตร์และสังคมศาสตร์มหาวิทยาลัยราชภัฎอุดรธานี ศูนย์การศึกษาสามพร้าว","dustboy_lat":"17.4500682","dustboy_lon":"102.9328069","phase":"3","area":"ตะวันออกเฉียงเหนือ"},
    {"dustboy_name":"องค์การบริหารส่วนตำบลท่าขุนราม","dustboy_lat":"16.451816","dustboy_lon":"99.445213","phase":"3","area":"กลาง"},
    {"dustboy_name":"โรงพยาบาลส่งเสริมสุขภาพตำบลเนินปอ จังหวัดพิจิตร","dustboy_lat":"16.413033","dustboy_lon":"100.16548","phase":"3","area":"กลาง"},
    {"dustboy_name":"โรงพยาบาลส่งเสริมสุขภาพตำบลท้ายน้ำ จังหวัดพิจิตร","dustboy_lat":"16.134026","dustboy_lon":"100.234319","phase":"3","area":"กลาง"},
    {"dustboy_name":"โรงพยาบาลส่งเสริมสุขภาพตำบลบ้านทุ่งใหญ่","dustboy_lat":"16.278985","dustboy_lon":"100.101996","phase":"3","area":"กลาง"},
    {"dustboy_name":"โรงพยาบาลส่งเสริมสุขภาพตำบลหอไกร","dustboy_lat":"16.057328","dustboy_lon":"100.377899","phase":"3","area":"กลาง"},
    {"dustboy_name":"สำนักงานสาธารณสุขอำเภอเก้าเลี้ยว","dustboy_lat":"15.84415","dustboy_lon":"100.07686","phase":"3","area":"กลาง"},
    {"dustboy_name":"โรงพยาบาลตากฟ้า จังหวัดนครสวรรค์","dustboy_lat":"15.34694","dustboy_lon":"100.49327","phase":"3","area":"กลาง"},
    {"dustboy_name":"โรงพยาบาลส่งเสริมสุขภาพตำบลบ้านดงมหาชัย","dustboy_lat":"15.13707","dustboy_lon":"100.41303","phase":"3","area":"กลาง"},
    {"dustboy_name":"องค์การบริหารส่วนตำบลหนองโพ","dustboy_lat":"15.39116","dustboy_lon":"100.25914","phase":"3","area":"กลาง"},
    {"dustboy_name":"โรงพยาบาลแม่วงก์","dustboy_lat":"15.78184","dustboy_lon":"99.52107","phase":"3","area":"กลาง"},
    {"dustboy_name":"โรงพยาบาลน้ำหนาว","dustboy_lat":"16.76555","dustboy_lon":"101.67493","phase":"3","area":"กลาง"},
    {"dustboy_name":"โรงพยาบาลสมเด็จพระยุพราชหล่มเก่า","dustboy_lat":"16.857613","dustboy_lon":"101.248835","phase":"3","area":"กลาง"},
    {"dustboy_name":"โรงพยาบาลหล่มสัก","dustboy_lat":"16.7791","dustboy_lon":"101.2368","phase":"3","area":"กลาง"},
    {"dustboy_name":"โรงพยาบาลเขาค้อ","dustboy_lat":"","dustboy_lon":"","phase":"3","area":"กลาง"},
    {"dustboy_name":"โรงพยาบาลวังโป่ง","dustboy_lat":"16.350677","dustboy_lon":"100.789632","phase":"3","area":"กลาง"},
    {"dustboy_name":"โรงพยาบาลหนองไผ่","dustboy_lat":"15.992028","dustboy_lon":"101.063111","phase":"3","area":"กลาง"},
    {"dustboy_name":"บริเวณหน้าสำนักงานองค์การบริหารส่วนตำบลเกาะหมาก","dustboy_lat":"11.814858","dustboy_lon":"102.480242","phase":"3","area":"ตะวันออก"},
    {"dustboy_name":"ศูนย์พัฒนาเด็กเล็กเทศบาลตำบลหนองหาร","dustboy_lat":"18.945097","dustboy_lon":"98.983447","phase":"3","area":"เหนือ"},
    {"dustboy_name":"โรงพยาบาลส่งเสริมสุขภาพตำบลบ้านปงตำ","dustboy_lat":"19.74707","dustboy_lon":"99.143485","phase":"3","area":"เหนือ"},
    {"dustboy_name":"ตลาดสดบ้านศรีปทุม","dustboy_lat":"18.379376","dustboy_lon":"98.747821","phase":"3","area":"เหนือ"},
    {"dustboy_name":"ตลาดสดบ้านหล่ายแก้ว","dustboy_lat":"18.368635","dustboy_lon":"98.769606","phase":"3","area":"เหนือ"},
    {"dustboy_name":"โรงพยาบาลนาทม","dustboy_lat":"17.787312","dustboy_lon":"104.091322","phase":"3","area":"ตะวันออกเฉียงเหนือ"},
    {"dustboy_name":"อาคารผู้ป่วยนอกและอุบัติเหตุฉุกเฉิน","dustboy_lat":"17.45518","dustboy_lon":"104.469163","phase":"3","area":"ตะวันออกเฉียงเหนือ"},
    {"dustboy_name":"โรงพยาบาลนาหว้า","dustboy_lat":"17.4913525","dustboy_lon":"104.0940133","phase":"3","area":"ตะวันออกเฉียงเหนือ"},
    {"dustboy_name":"ตึกกุมารเวชกรรม รพ.ศรีสงคราม","dustboy_lat":"17.6276088","dustboy_lon":"104.2516564","phase":"3","area":"ตะวันออกเฉียงเหนือ"},
    {"dustboy_name":"ทางเชื่อมอาคารผู้ป่วยนอกกับอาคารผู้ป่วยใน รพ.เรณูนคร","dustboy_lat":"17.054383","dustboy_lon":"104.67887","phase":"3","area":"ตะวันออกเฉียงเหนือ"},
    {"dustboy_name":"ตึกผู้ป่วยนอก รพ.วังยาง","dustboy_lat":"17.0602838","dustboy_lon":"104.4586418","phase":"3","area":"ตะวันออกเฉียงเหนือ"},
    {"dustboy_name":"อาคารผู้ป่วยนอก รพ.นาแก","dustboy_lat":"16.9542033","dustboy_lon":"104.4712663","phase":"3","area":"ตะวันออกเฉียงเหนือ"},
    {"dustboy_name":"โรงพยาบาลส่งเสริมสุขภาพตำบลค่ายสว่าง","dustboy_lat":"17.4738064","dustboy_lon":"102.3024292","phase":"3","area":"ตะวันออกเฉียงเหนือ"},
    {"dustboy_name":"สำนักงานเทศบาลเมืองยโสธร","dustboy_lat":"15.7970744","dustboy_lon":"104.1427828","phase":"3","area":"ตะวันออกเฉียงเหนือ"},
    {"dustboy_name":"สวนสาธารณะเฉลิมพระเกียรติ (วิมานพญาแถน)","dustboy_lat":"15.79214934","dustboy_lon":"104.154956","phase":"3","area":"ตะวันออกเฉียงเหนือ"},
    {"dustboy_name":"สวนสาธารณะพญาแถน","dustboy_lat":"15.78422044","dustboy_lon":"104.1525501","phase":"3","area":"ตะวันออกเฉียงเหนือ"},
    {"dustboy_name":"สวนสาธารณะบุ่งน้อยบุ่งใหญ่","dustboy_lat":"15.78992259","dustboy_lon":"104.1399813","phase":"3","area":"ตะวันออกเฉียงเหนือ"},
    {"dustboy_name":"คณะศิลปศาสตร์ มหาวิทยาลัยธรรมศาสตร์ (ศูนย์รังสิต)","dustboy_lat":"14.068963","dustboy_lon":"100.602192","phase":"3","area":"กลาง"},
    {"dustboy_name":"สำนักงานเทศบาลเมืองศรีสัชนาลัย (หลังใหม่)","dustboy_lat":"17.406062","dustboy_lon":"99.7488598","phase":"3","area":"กลาง"},
    {"dustboy_name":"สำนักงานเทศบาลเมืองศรีสัชนาลัย (หลังเก่า)","dustboy_lat":"17.410485","dustboy_lon":"99.798967","phase":"3","area":"กลาง"},
    {"dustboy_name":"โรงเรียนอนุบาลเทศบาลบ้านฉาง","dustboy_lat":"12.6681","dustboy_lon":"100.8994","phase":"3","area":"ตะวันออก"},
    {"dustboy_name":"สำนักงานเทศบาลตำบลบ้านฉาง","dustboy_lat":"12.67669536","dustboy_lon":"101.0645515","phase":"3","area":"ตะวันออก"},
    {"dustboy_name":"ตลาดสดเทศบาลตำบลย่านดินแดง","dustboy_lat":"8.572856","dustboy_lon":"99.249469","phase":"3","area":"ใต้"},
    {"dustboy_name":"วัดย่านดินแดง","dustboy_lat":"8.5729484","dustboy_lon":"99.2469006","phase":"3","area":"ใต้"},
    {"dustboy_name":"ตลาดนัดเขาช่องพราน","dustboy_lat":"13.692476","dustboy_lon":"99.763043","phase":"3","area":"ตะวันตก"},
    {"dustboy_name":"ตลาดนัดเขาขวาง","dustboy_lat":"13.716925","dustboy_lon":"99.770308","phase":"3","area":"ตะวันตก"},
    {"dustboy_name":"ตลาดนัดหัวรอ","dustboy_lat":"13.69240926","dustboy_lon":"99.763001","phase":"3","area":"ตะวันตก"},
    {"dustboy_name":"สี่แยกไฟแดงถนนมิตรบำรุง","dustboy_lat":"16.703328","dustboy_lon":"103.07978","phase":"3","area":"ตะวันออกเฉียงเหนือ"},
    {"dustboy_name":"สี่แยกไฟแดงถนนเที่ยงธรรม","dustboy_lat":"16.703201","dustboy_lon":"103.083103","phase":"3","area":"ตะวันออกเฉียงเหนือ"},
    {"dustboy_name":"สำนักงานเทศบาลตำบลป่าซาง","dustboy_lat":"18.517788","dustboy_lon":"98.93935","phase":"3","area":"เหนือ"},
    {"dustboy_name":"วัดบ้านก้อง","dustboy_lat":"18.538692","dustboy_lon":"98.934133","phase":"3","area":"เหนือ"},
    {"dustboy_name":"โรงเรียนคุ้งเขาเขียว ต.หน้าพระลาน อ.เฉลิมพระเกียรติ จ.สระบุรี","dustboy_lat":"100.8623","dustboy_lon":"14.7043","phase":"3","area":"กลาง"},
    {"dustboy_name":"โรงเรียนหน้าพระลาน ต.หน้าพระลาน อ.เฉลิมพระเกียรติ จ.สระบุรี","dustboy_lat":"100.8717","dustboy_lon":"14.7043","phase":"3","area":"กลาง"},
    {"dustboy_name":"โรงพยาบาลส่งเสริมสุขภาพตำบลหน้าพระลาน","dustboy_lat":"100.874","dustboy_lon":"14.6892","phase":"3","area":"กลาง"},
    {"dustboy_name":"ศูนย์พัฒนาเด็กเล็กบ้านห้วยตาด","dustboy_lat":"19.258543","dustboy_lon":"98.9229","phase":"3","area":"เหนือ"},
    {"dustboy_name":"ศูนย์พัฒนาเด็กเล็กบ้านทับเดื่อ","dustboy_lat":"19.218389","dustboy_lon":"98.970993","phase":"3","area":"เหนือ"},
    {"dustboy_name":"โรงพยาบาลชาติตระการ","dustboy_lat":"17.273208","dustboy_lon":"100.601478","phase":"3","area":"กลาง"},
    {"dustboy_name":"โรงพยาบาลวังทอง","dustboy_lat":"16.83917","dustboy_lon":"100.435145","phase":"3","area":"กลาง"},
    {"dustboy_name":"โรงพยาบาลเนินมะปราง","dustboy_lat":"16.561169","dustboy_lon":"100.624424","phase":"3","area":"กลาง"},
    {"dustboy_name":"โรงพยาบาลวัดโบสถ์","dustboy_lat":"16.988528","dustboy_lon":"100.327386","phase":"3","area":"กลาง"},
    {"dustboy_name":"โรงพยาบาลบางกระทุ่ม","dustboy_lat":"16.575403","dustboy_lon":"100.317031","phase":"3","area":"กลาง"},
    {"dustboy_name":"โรงพยาบาลพรมพิราม","dustboy_lat":"17.034873","dustboy_lon":"100.201162","phase":"3","area":"กลาง"},
    {"dustboy_name":"สำนักงานสาธารณสุขอำเภอขุนยวม","dustboy_lat":"18.822661","dustboy_lon":"97.93548","phase":"3","area":"เหนือ"},
    {"dustboy_name":"สำนักงานสาธารณสุขอำเภอแม่ลาน้อย","dustboy_lat":"18.383758","dustboy_lon":"97.93692","phase":"3","area":"เหนือ"},
    {"dustboy_name":"โรงพยาบาลส่งเสริมสุขภาพตำบลแม่ฮี้","dustboy_lat":"19.342379","dustboy_lon":"98.449871","phase":"3","area":"เหนือ"},
    {"dustboy_name":"โรงพยาบาลส่งเสริมสุขภาพตำบลนาป่าแปก","dustboy_lat":"19.533163","dustboy_lon":"97.927988","phase":"3","area":"เหนือ"},
    {"dustboy_name":"โรงพยาบาลส่งเสริมสุขภาพตำบลเมืองแปง","dustboy_lat":"19.211636","dustboy_lon":"98.368359","phase":"3","area":"เหนือ"},
    {"dustboy_name":"ศูนย์บริการสาธารณสุขเทศบาลเมืองแม่ฮ่องสอน","dustboy_lat":"19.305666","dustboy_lon":"97.967332","phase":"3","area":"เหนือ"},
    {"dustboy_name":"สำนักงานองค์การบริหารส่วนตำบลป่าหุ่ง","dustboy_lat":"19.5691928","dustboy_lon":"99.6938951","phase":"3","area":"เหนือ"},
    {"dustboy_name":"โรงพยาบาลส่งเสริมสุขภาพบ้านงิ้วเฒ่า","dustboy_lat":"19.4456102","dustboy_lon":"99.6019067","phase":"3","area":"เหนือ"},
    {"dustboy_name":"โรงพยาบาลส่งเสริมสุขภาพตำบลหนองนาคำ","dustboy_lat":"17.371482","dustboy_lon":"102.890834","phase":"3","area":"ตะวันออกเฉียงเหนือ"},
    {"dustboy_name":"โรงพยาบาลส่งเสริมสุขภาพบ้านหนองใส","dustboy_lat":"17.409255","dustboy_lon":"102.84993","phase":"3","area":"ตะวันออกเฉียงเหนือ"},
    {"dustboy_name":"โรงพยาบาลส่งเสริมสุขภาพตำบลคำบง","dustboy_lat":"17.603737","dustboy_lon":"102.556958","phase":"3","area":"ตะวันออกเฉียงเหนือ"},
    {"dustboy_name":"เทศบาลเมืองอุทัยธานี","dustboy_lat":"15.377275","dustboy_lon":"100.034439","phase":"3","area":"กลาง"},
    {"dustboy_name":"โรงพยาบาลสว่างอารมณ์","dustboy_lat":"15.57819","dustboy_lon":"99.862732","phase":"3","area":"กลาง"},
    {"dustboy_name":"โรงพยาบาลหนองฉาง","dustboy_lat":"15.39138","dustboy_lon":"99.850773","phase":"3","area":"กลาง"},
    {"dustboy_name":"โรงพยาบาลบ้านไร่","dustboy_lat":"15.079018","dustboy_lon":"99.513726","phase":"3","area":"กลาง"},
    {"dustboy_name":"โรงพยาบาลลานสัก","dustboy_lat":"15.496027","dustboy_lon":"99.548079","phase":"3","area":"กลาง"},
    {"dustboy_name":"เทศบาลเมืองแก่งคอย","dustboy_lat":"14.586284","dustboy_lon":"100.996801","phase":"3","area":"กลาง"},
    {"dustboy_name":"โรงเรียนเทศบาลบ้านม่วง","dustboy_lat":"14.592535","dustboy_lon":"100.997789","phase":"3","area":"กลาง"},
    {"dustboy_name":"ศูนย์พัฒนาเด็กเล็กเทศบาลเมืองไร่ขิง แห่งที่ 4 วังมณี","dustboy_lat":"13.735867","dustboy_lon":"100.279984","phase":"3","area":"กลาง"},
    {"dustboy_name":"ศูนย์พัฒนาเด็กเล็กเทศบาลเมืองไร่ขิง แห่งที่ 3 บ้านเอื้ออาทรสาย 5","dustboy_lat":"13.729586","dustboy_lon":"100.301408","phase":"3","area":"กลาง"},
    {"dustboy_name":"โรงพยาบาลส่งเสริมสุขภาพตำบลบ้านโหล่งปง","dustboy_lat":"18.31878381","dustboy_lon":"98.35752471","phase":"3","area":"เหนือ"},
    {"dustboy_name":"โรงพยาบาลส่งเสริมสุขภาพตำบลกองแขก","dustboy_lat":"18.43337629","dustboy_lon":"98.38784923","phase":"3","area":"เหนือ"},
    {"dustboy_name":"ควนตำหนักจันทน์","dustboy_lat":"7.4046537","dustboy_lon":"99.51923","phase":"3","area":"ใต้"},
    {"dustboy_name":"ท่าเรือกันตัง","dustboy_lat":"7.4097022","dustboy_lon":"99.5089708","phase":"3","area":"ใต้"},
    {"dustboy_name":"โรงพยาบาลส่งเสริมสุขภาพตำบลปทุม","dustboy_lat":"15.24759823","dustboy_lon":"104.8858081","phase":"3","area":"ตะวันออกเฉียงเหนือ"},
    {"dustboy_name":"โรงพยาบาลดงหลวง อ.ดงหลวง","dustboy_lat":"16.800062","dustboy_lon":"104.5280083","phase":"3","area":"ตะวันออกเฉียงเหนือ"},
    {"dustboy_name":"โรงพยาบาลหว้านใหญ่ อ.หว้านใหญ่","dustboy_lat":"16.728209","dustboy_lon":"104.713087","phase":"3","area":"ตะวันออกเฉียงเหนือ"},
    {"dustboy_name":"โรงพยาบาลคำชะอี อ.คำชะอี","dustboy_lat":"16.5588125","dustboy_lon":"104.4133125","phase":"3","area":"ตะวันออกเฉียงเหนือ"},
    {"dustboy_name":"โรงพยาบาลนิคมคำสร้อย อ.นิคมคำสร้อย","dustboy_lat":"16.376248","dustboy_lon":"104.5444123","phase":"3","area":"ตะวันออกเฉียงเหนือ"},
    {"dustboy_name":"โรงพยาบาลหนองสูง อ.หนองสูง","dustboy_lat":"16.4831","dustboy_lon":"104.3436","phase":"3","area":"ตะวันออกเฉียงเหนือ"},
    {"dustboy_name":"โรงพยาบาลดอนตาล อ.ดอนตาล","dustboy_lat":"16.310278","dustboy_lon":"104.9224903","phase":"3","area":"ตะวันออกเฉียงเหนือ"},
    {"dustboy_name":"โรงพยาบาลส่งเสริมสุขภาพตำบลนายม อ.เมือง จ.อำนาจเจริญ","dustboy_lat":"15.853918","dustboy_lon":"104.506231","phase":"3","area":"ตะวันออกเฉียงเหนือ"},
    {"dustboy_name":"โรงพยาบาลส่งเสริมสุขภาพตำบลหนองสามสี อ.เสนานิคม จ.อำนาจเจริญ","dustboy_lat":"16.075134","dustboy_lon":"104.595124","phase":"3","area":"ตะวันออกเฉียงเหนือ"},
    {"dustboy_name":"โรงพยาบาลส่งเสริมสุขภาพตำบลโป่งหิน อ.เสนานิคม จ.อำนาจเจริญ","dustboy_lat":"16.037289","dustboy_lon":"104.720739","phase":"3","area":"ตะวันออกเฉียงเหนือ"},
    {"dustboy_name":"โรงพยาบาลปทุมราชวงศา อ.ปทุมราชวงศา จ.อำนาจเจริญ","dustboy_lat":"15.900788","dustboy_lon":"104.936259","phase":"3","area":"ตะวันออกเฉียงเหนือ"},
    {"dustboy_name":"สสอ.ลืออำนาจ อ.ลืออำนาจ จ.อำนาจเจริญ","dustboy_lat":"15.689307","dustboy_lon":"104.650456","phase":"3","area":"ตะวันออกเฉียงเหนือ"},
    {"dustboy_name":"สสอ.หัวตะพาน อ.หัวตะพาน จ.อำนาจเจริญ","dustboy_lat":"15.700899","dustboy_lon":"104.494034","phase":"3","area":"ตะวันออกเฉียงเหนือ"},
    {"dustboy_name":"โรงพยาบาลอำนาจเจริญ อ.เมือง จ.อำนาจเจริญ","dustboy_lat":"15.862836","dustboy_lon":"104.627296","phase":"3","area":"ตะวันออกเฉียงเหนือ"},
    {"dustboy_name":"โรงพยาบาลส่งเสริมสุขภาพตำบลศิริพัฒนา อ.ค้อวัง จ.ยโสธร","dustboy_lat":"15.42011","dustboy_lon":"104.275338","phase":"3","area":"ตะวันออกเฉียงเหนือ"},
    {"dustboy_name":"โรงพยาบาลส่งเสริมสุขภาพตำบลโพนเมือง อ.ค้อวัง จ.ยโสธร","dustboy_lat":"15.322247","dustboy_lon":"104.398062","phase":"3","area":"ตะวันออกเฉียงเหนือ"},
    {"dustboy_name":"สสอ.ค้อวัง อ.ค้อวัง จ.ยโสธร","dustboy_lat":"15.366622","dustboy_lon":"104.362538","phase":"3","area":"ตะวันออกเฉียงเหนือ"},
    {"dustboy_name":"โรงเรียนอนุบาลมยุรี","dustboy_lat":"18.7518481","dustboy_lon":"98.968845","phase":"3","area":"เหนือ"},
    {"dustboy_name":"โรงพยาบาลศรีเทพ","dustboy_lat":"15.449968","dustboy_lon":"101.055548","phase":"3","area":"กลาง"},
    {"dustboy_name":"โรงพยาบาลชนแดน","dustboy_lat":"16.187721","dustboy_lon":"100.870595","phase":"3","area":"กลาง"},
    {"dustboy_name":"โรงพยาบาลบังสามพัน","dustboy_lat":"15.767434","dustboy_lon":"101.009708","phase":"3","area":"กลาง"},
    {"dustboy_name":"อบต.รางจรเข้ จ.พระนครศรีอยุธยา","dustboy_lat":"14.35049","dustboy_lon":"100.37738","phase":"3","area":"กลาง"},
    {"dustboy_name":"รพ.สต.สระ จ.พะเยา","dustboy_lat":"19.0064796","dustboy_lon":"100.0007385","phase":"3","area":"เหนือ"},
    {"dustboy_name":"อบต.นาพูน จ.แพร่","dustboy_lat":"17.7855556","dustboy_lon":"99.7632557","phase":"3","area":"เหนือ"},
    {"dustboy_name":"อบต.บ้านปิน จ.แพร่","dustboy_lat":"17.8402181","dustboy_lon":"99.6963628","phase":"3","area":"เหนือ"},
    {"dustboy_name":"อบต.บ้านเวียง จ.แพร่","dustboy_lat":"18.2125323","dustboy_lon":"100.27852","phase":"3","area":"เหนือ"},
    {"dustboy_name":"รพ.สต.บ้านดอนหลวง จ.น่าน","dustboy_lat":"","dustboy_lon":"","phase":"3","area":"เหนือ"},
    {"dustboy_name":"รพ.สต.บ้านนากลาง จ.ลำพูน","dustboy_lat":"","dustboy_lon":"","phase":"3","area":"เหนือ"},
    {"dustboy_name":"สำนักงานเทศบาลเมืองปัตตานี","dustboy_lat":"6.8477327","dustboy_lon":"101.223626","phase":"3","area":"ใต้"},
    {"dustboy_name":"โรงเรียนเทศบาล 2 (วัดตานีนรสโมสร) จ.ปัตตานี","dustboy_lat":"6.867198","dustboy_lon":"101.2534937","phase":"3","area":"ใต้"},
    {"dustboy_name":"โรงเรียนเทศบาล 5 (เทศบาลเมืองปัตตานี) จ.ปัตตานี","dustboy_lat":"6.8682183","dustboy_lon":"101.2365916","phase":"3","area":"ใต้"},
    {"dustboy_name":"เทศบาลตำบลวังดิน","dustboy_lat":"17.801631","dustboy_lon":"98.947158","phase":"3","area":"เหนือ"},
    {"dustboy_name":"ศูนย์สุขภาพชุมชนลี้","dustboy_lat":"17.804074","dustboy_lon":"98.948334","phase":"3","area":"เหนือ"},
    {"dustboy_name":"เทศบาลตำบลลี้ (ยืมเครื่อง)","dustboy_lat":"17.7698295","dustboy_lon":"98.9603638","phase":"3","area":"เหนือ"},
    {"dustboy_name":"โรงพยาบาลพรเจริญ","dustboy_lat":"18.008198","dustboy_lon":"103708374","phase":"3","area":"ตะวันออกเฉียงเหนือ"},
    {"dustboy_name":"โรงพยาบาลปากคาด","dustboy_lat":"18.2995206","dustboy_lon":"103.31212","phase":"3","area":"ตะวันออกเฉียงเหนือ"},
    {"dustboy_name":"โรงพยาบาลบุ่งคล้า","dustboy_lat":"18.279907","dustboy_lon":"103.98698","phase":"3","area":"ตะวันออกเฉียงเหนือ"},
    {"dustboy_name":"โรงพยาบาลเซกา","dustboy_lat":"17.938711","dustboy_lon":"103.9476633","phase":"3","area":"ตะวันออกเฉียงเหนือ"},
    {"dustboy_name":"คณะสิ่งแวดล้อมและทรัพยากรศาสตร์ มหาวิทยาลัยมหาสารคาม","dustboy_lat":"16.24317","dustboy_lon":"103.252015","phase":"3","area":"ตะวันออกเฉียงเหนือ"},
    {"dustboy_name":"คณะสาธารณสุขศาสตร์ มหาวิทยาลัยมหาสารคาม","dustboy_lat":"16.248339","dustboy_lon":"103.253564","phase":"3","area":"ตะวันออกเฉียงเหนือ"},
    {"dustboy_name":"คณะการบัญชีและการจัดการ มหาวิทยาลัยมหาสารคาม","dustboy_lat":"16.248755","dustboy_lon":"103.247594","phase":"3","area":"ตะวันออกเฉียงเหนือ"},
    {"dustboy_name":"โรงพยาบาลนครปฐม","dustboy_lat":"13.81943383","dustboy_lon":"100.0748968","phase":"3","area":"กลาง"},
    {"dustboy_name":"รพ.สต.อ้อมใหญ่","dustboy_lat":"13.68958035","dustboy_lon":"100.2588366","phase":"3","area":"กลาง"},
    {"dustboy_name":"รพ.นครชัยศรี","dustboy_lat":"13.79249148","dustboy_lon":"100.1944978","phase":"3","area":"กลาง"},
    {"dustboy_name":"โรงพยาบาลส่งเสริมสุขภาพตำบลบึงกอก","dustboy_lat":"16.718094","dustboy_lon":"100.019044","phase":"3","area":"กลาง"},
    {"dustboy_name":"ศูนย์พัฒนาทักษะและการเรียนรู้ CIC ภูเก็ต","dustboy_lat":"7.8637","dustboy_lon":"98.39873","phase":"3","area":"ใต้"},
    {"dustboy_name":"มหาวิทยาลัยสงขลานครินทร์ วิทยาเขตภูเก็ต","dustboy_lat":"7.8936355","dustboy_lon":"98.3521883","phase":"3","area":"ใต้"},
    {"dustboy_name":"มหาวิทยาลัยมหิดล (ศาลายา)","dustboy_lat":"13.7945775","dustboy_lon":"100.3212284","phase":"3","area":"กลาง"},
    {"dustboy_name":"มหาวิทยาลัยเทคโนโลยีราชมงคลล้านนา (ดอยสะเก็ด)","dustboy_lat":"18.858264","dustboy_lon":"99.179698","phase":"3","area":"เหนือ"},
    {"dustboy_name":"สำนักงานสาธารณสุขจังหวัดพิษณุโลก","dustboy_lat":"16.8175311","dustboy_lon":"100.2606097","phase":"3","area":"กลาง"},
    {"dustboy_name":"โรงพยาบาลป่าติ้ว จ. ยโสธร","dustboy_lat":"15.8322","dustboy_lon":"104.3832","phase":"3","area":"ตะวันออกเฉียงเหนือ"},
    {"dustboy_name":"สำนักงานเทศบาลนครนนทบุรี อาคาร 2","dustboy_lat":"13.861863","dustboy_lon":"100.5136052","phase":"3","area":"กลาง"},
    {"dustboy_name":"สำนักงานแขวงท่าทราย เทศบาลนครนนทบุรี","dustboy_lat":"13.8708782","dustboy_lon":"100.5326875","phase":"3","area":"กลาง"},
    {"dustboy_name":"ศูนย์บริการสาธารณสุขที่ 2 เทศบาลนครนนทบุรี","dustboy_lat":"13.8422495","dustboy_lon":"100.4924285","phase":"3","area":"กลาง"},
    {"dustboy_name":"ศูนย์บริการสาธารณสุขที่ 4 (วัดสมรโกฏิ) เทศบาลนครนนทบุรี","dustboy_lat":"13.8614545","dustboy_lon":"100.4994556","phase":"3","area":"กลาง"},
    {"dustboy_name":"รพสต. หนองกุลา อ. บางระกำ จ. พิษณุโลก","dustboy_lat":"16.640014","dustboy_lon":"99.949296","phase":"3","area":"กลาง"},
    {"dustboy_name":"รพ.สต. ปลักแรด อ. บางระกำ จ. พิษณุโลก","dustboy_lat":"16.689223","dustboy_lon":"100.098092","phase":"3","area":"กลาง"},
    {"dustboy_name":"โรงพยาบาลส่งเสริมสุขภาพตำบลบึงกอก","dustboy_lat":"16.718094","dustboy_lon":"100.019044","phase":"3","area":"กลาง"},
    {"dustboy_name":"โรงพยาบาลบางระกำ จ. พิษณุโลก","dustboy_lat":"16.759757","dustboy_lon":"100.119113","phase":"3","area":"กลาง"},
    {"dustboy_name":"โรงพยาบาลส่งเสริมสุขภาพตำบลบ้านชุมแสงสงคราม","dustboy_lat":"16.845994","dustboy_lon":"100.063845","phase":"3","area":"กลาง"},
    {"dustboy_name":"โรงพยาบาลกู่แก้ว","dustboy_lat":"17.166319","dustboy_lon":"103.155554","phase":"3","area":"ตะวันออกเฉียงเหนือ"},
    {"dustboy_name":"โรงพยาบาลโซ่พิสัย","dustboy_lat":"18.0810754","dustboy_lon":"103.4473127","phase":"3","area":"ตะวันออกเฉียงเหนือ"},
    {"dustboy_name":"โรงพยาบาลส่งเสริมสุขภาพตำบลบ้านดงมะตื๋น","dustboy_lat":"19.91158898","dustboy_lon":"100.0569695","phase":"3","area":"เหนือ"},
    {"dustboy_name":"โรงเรียนบ้านโชคเจริญ","dustboy_lat":"17.706561","dustboy_lon":"102.288454","phase":"3","area":"ตะวันออกเฉียงเหนือ"},
    {"dustboy_name":"รพ.สต.ผากลางนา","dustboy_lat":"17.754429","dustboy_lon":"102.262324","phase":"3","area":"ตะวันออกเฉียงเหนือ"},
    {"dustboy_name":"หอดูดาวเฉลิมพระเกียรติ 7 รอบ พระชนมพรรษา จ. สงขลา","dustboy_lat":"7.158206","dustboy_lon":"100.611179","phase":"3","area":"ใต้"},
    {"dustboy_name":"สำนักงานเทศบาลนครหาดใหญ่","dustboy_lat":"7.015358","dustboy_lon":"100.472931","phase":"3","area":"ใต้"},
    {"dustboy_name":"โรงเรียนอนุบาลมวกเหล็ก จ. สระบุรี","dustboy_lat":"14.658646","dustboy_lon":"101.198492","phase":"3","area":"กลาง"},
    {"dustboy_name":"อาคารวิศวกรรมโยธา มหาวิทยาลัยนเรศวร (พิษณุโลก)","dustboy_lat":"16.7431221","dustboy_lon":"100.196024","phase":"3","area":"กลาง"},
    {"dustboy_name":"โรงเรียนบ้านหัวป้าง จ.นครราชสีมา","dustboy_lat":"14.7200323","dustboy_lon":"101.2189417","phase":"3","area":"ตะวันออกเฉียงเหนือ"},
    {"dustboy_name":"ชุมชนหมู่ 5 บ้านเขามะกอก จ. สระบุรี","dustboy_lat":"14.6587957","dustboy_lon":"101.1772059","phase":"3","area":"กลาง"},
    {"dustboy_name":"สำนักงานเทศบาลตำบลปริก","dustboy_lat":"6.710651","dustboy_lon":"100.4445898","phase":"3","area":"ใต้"},
    {"dustboy_name":"สำนักงานเทศบาลเมืองคอหงส์","dustboy_lat":"6.9978633","dustboy_lon":"100.4905127","phase":"3","area":"ใต้"},
    {"dustboy_name":"สำนักงานทรัพยากรธรรมชาติและสิ่งแวดล้อมจังหวัดสงขลา","dustboy_lat":"7.21378","dustboy_lon":"100.586816","phase":"3","area":"ใต้"}
]