[
    {"dustboy_name":"สำนักงานสาธารณสุขอำเภอดอกคำใต้","dustboy_lat":"19.1683159","dustboy_lon":"99.9874735","phase":"1","area":"เหนือ"},
    {"dustboy_name":"สำนักงานสาธารณสุขอำเภอภูกามยาว","dustboy_lat":"19.2728377","dustboy_lon":"99.9704521","phase":"1","area":"เหนือ"},
    {"dustboy_name":"โรงพยาบาลส่งเสริมสุขภาพตำบลแม่กา","dustboy_lat":"19.0493431","dustboy_lon":"99.9335363","phase":"1","area":"เหนือ"},
    {"dustboy_name":"สำนักงานสาธารณสุขอำเภอภูซาง","dustboy_lat":"19.599981","dustboy_lon":"100.324148","phase":"1","area":"เหนือ"},
    {"dustboy_name":"สำนักงานสาธารณสุขอำเภอแม่ใจ","dustboy_lat":"19.3420596","dustboy_lon":"99.8152521","phase":"1","area":"เหนือ"},
    {"dustboy_name":"โรงพยาบาลร้องกวาง","dustboy_lat":"18.306962","dustboy_lon":"100.2911564","phase":"1","area":"เหนือ"},
    {"dustboy_name":"รพ.สต.ป่าแดง","dustboy_lat":"18.0851012","dustboy_lon":"100.1884748","phase":"1","area":"เหนือ"},
    {"dustboy_name":"สำนักงานสาธารณสุขจังหวัดแพร่","dustboy_lat":"18.1494015","dustboy_lon":"100.1463428","phase":"1","area":"เหนือ"},
    {"dustboy_name":"รพ.สต. ไทรย้อย อ. เด่นชัย","dustboy_lat":"17.409861","dustboy_lon":"100.475391","phase":"1","area":"เหนือ"},
    {"dustboy_name":"โรงพยาบาลหนองม่วงไข่","dustboy_lat":"18.26371","dustboy_lon":"100.19479","phase":"1","area":"เหนือ"},
    {"dustboy_name":"โรงพยาบาลสูงเม่น","dustboy_lat":"18.0598117","dustboy_lon":"100.1175278","phase":"1","area":"เหนือ"},
    {"dustboy_name":"รพ.สต.สะเอียบ","dustboy_lat":"18.7255263","dustboy_lon":"100.2340137","phase":"1","area":"เหนือ"},
    {"dustboy_name":"รพ.สต. ผาคัน","dustboy_lat":"18.2071409","dustboy_lon":"99.8619967","phase":"1","area":"เหนือ"},
    {"dustboy_name":"รพ.สต. บ้านเวียง","dustboy_lat":"18.220036","dustboy_lon":"100.28846","phase":"1","area":"เหนือ"},
    {"dustboy_name":"รพ.สต. วังลึก","dustboy_lat":"17.5725387","dustboy_lon":"99.4937306","phase":"1","area":"เหนือ"},
    {"dustboy_name":"โรงพยาบาลแพร่","dustboy_lat":"18.1331585","dustboy_lon":"100.1545941","phase":"1","area":"เหนือ"},
    {"dustboy_name":"รพ.สต.ทุ่งแค้ว","dustboy_lat":"18.304061","dustboy_lon":"100.159047","phase":"1","area":"เหนือ"},
    {"dustboy_name":"รพ.สต.สบสาย","dustboy_lat":"18.084361","dustboy_lon":"100.107642","phase":"1","area":"เหนือ"},
    {"dustboy_name":"โรงพยาบาลสมเด็จพระยุพราชเด่นชัย","dustboy_lat":"17.982854","dustboy_lon":"100.054273","phase":"1","area":"เหนือ"},
    {"dustboy_name":"โรงพยาบาลสอง","dustboy_lat":"18.460248","dustboy_lon":"100.1823043","phase":"1","area":"เหนือ"},
    {"dustboy_name":"โรงพยาบาลลอง","dustboy_lat":"18.0896667","dustboy_lon":"99.8438863","phase":"1","area":"เหนือ"},
    {"dustboy_name":"โรงพยาบาลวังชิ้น","dustboy_lat":"17.8892929","dustboy_lon":"99.5984095","phase":"1","area":"เหนือ"},
    {"dustboy_name":"โรงพยาบาลปาย","dustboy_lat":"19.3617071","dustboy_lon":"98.4377763","phase":"1","area":"เหนือ"},
    {"dustboy_name":"โรงพยาบาลแม่ลาน้อย","dustboy_lat":"19.650495","dustboy_lon":"98.093034","phase":"1","area":"เหนือ"},
    {"dustboy_name":"โรงพยาบาลปางมะผ้า","dustboy_lat":"19.5245142","dustboy_lon":"98.2429728","phase":"1","area":"เหนือ"},
    {"dustboy_name":"สำนักงานสาธารณสุขจังหวัดแม่ฮ่องสอน","dustboy_lat":"19.287212","dustboy_lon":"97.962851","phase":"1","area":"เหนือ"},
    {"dustboy_name":"โรงพยาบาลธัญญารักษ์แม่ฮ่องสอน","dustboy_lat":"19.314346","dustboy_lon":"97.986904","phase":"1","area":"เหนือ"},
    {"dustboy_name":"โรงพยาบาลท่าสองยาง","dustboy_lat":"17.2298118","dustboy_lon":"98.2262925","phase":"1","area":"ตะวันตก"},
    {"dustboy_name":"โรงพยาบาลบ้านตาก","dustboy_lat":"17.0554831","dustboy_lon":"99.0730125","phase":"1","area":"ตะวันตก"},
    {"dustboy_name":"โรงพยาบาลสมเด็จพระเจ้าตากสินมหาราช","dustboy_lat":"16.8729937","dustboy_lon":"99.1316728","phase":"1","area":"ตะวันตก"},
    {"dustboy_name":"โรงพยาบาลพบพระ","dustboy_lat":"16.4012315","dustboy_lon":"98.6954814","phase":"1","area":"ตะวันตก"},
    {"dustboy_name":"โรงพยาบาลวังเจ้า","dustboy_lat":"16.7069591","dustboy_lon":"99.2407532","phase":"1","area":"ตะวันตก"},
    {"dustboy_name":"ศูนย์อนามัยที่ 2 พิษณุโลก","dustboy_lat":"16.9376917","dustboy_lon":"100.229276","phase":"1","area":"กลาง"},
    {"dustboy_name":"โรงพยาบาลสมเด็จพระยุพราชนครไทย","dustboy_lat":"17.093238","dustboy_lon":"100.8293264","phase":"1","area":"กลาง"},
    {"dustboy_name":"โรงพยาบาลอุตรดิตถ์","dustboy_lat":"17.6187772","dustboy_lon":"100.0868299","phase":"1","area":"เหนือ"},
    {"dustboy_name":"โรงพยาบาลน้ำปาด","dustboy_lat":"17.726629","dustboy_lon":"100.679255","phase":"1","area":"เหนือ"},
    {"dustboy_name":"เทศบาลตำบลกุดน้ำใส","dustboy_lat":"16.6981456","dustboy_lon":"102.7824657","phase":"1","area":"ตะวันออกเฉียงเหนือ"},
    {"dustboy_name":"เทศบาลตำบลท่าพระ","dustboy_lat":"16.3195202","dustboy_lon":"102.7810744","phase":"1","area":"ตะวันออกเฉียงเหนือ"},
    {"dustboy_name":"ศูนย์อนามัยที่ 7 ขอนแก่น","dustboy_lat":"16.42953","dustboy_lon":"102.8489393","phase":"1","area":"ตะวันออกเฉียงเหนือ"},
    {"dustboy_name":"เทศบาลตำบลลำน้ำพอง","dustboy_lat":"16.7411123","dustboy_lon":"102.8282007","phase":"1","area":"ตะวันออกเฉียงเหนือ"},
    {"dustboy_name":"โรงพยาบาลส่งเสริมสุขภาพตำบลเก่างิ้ว","dustboy_lat":"15.8729084","dustboy_lon":"102.5610617","phase":"1","area":"ตะวันออกเฉียงเหนือ"},
    {"dustboy_name":"โรงพยาบาลหนองเรือ","dustboy_lat":"16.4912103","dustboy_lon":"102.4409944","phase":"1","area":"ตะวันออกเฉียงเหนือ"},
    {"dustboy_name":"องค์การบริหารส่วนตำบลเมืองเพีย","dustboy_lat":"16.4878487","dustboy_lon":"102.1391087","phase":"1","area":"ตะวันออกเฉียงเหนือ"},
    {"dustboy_name":"โรงพยาบาลส่งเสริมสุขภาพตำบลคำแก่นคูณ","dustboy_lat":"16.4874759","dustboy_lon":"102.1391065","phase":"1","area":"ตะวันออกเฉียงเหนือ"},
    {"dustboy_name":"เทศบาลนครขอนแก่น (เดิม สำนักงานสาธารณสุขจังหวัดขอนแก่น)","dustboy_lat":"16.430017","dustboy_lon":"102.829436","phase":"1","area":"ตะวันออกเฉียงเหนือ"},
    {"dustboy_name":"มหาวิทยาลัยขอนแก่น","dustboy_lat":"16.47301","dustboy_lon":"102.8247268","phase":"1","area":"ตะวันออกเฉียงเหนือ"},
    {"dustboy_name":"สำนักงานสาธารณสุขจังหวัดร้อยเอ็ด","dustboy_lat":"16.054068","dustboy_lon":"103.6535613","phase":"1","area":"ตะวันออกเฉียงเหนือ"},
    {"dustboy_name":"องค์การบริหารส่วนตำบลเหนือเมือง","dustboy_lat":"16.0003164","dustboy_lon":"103.4816839","phase":"1","area":"ตะวันออกเฉียงเหนือ"},
    {"dustboy_name":"เทศบาลตำบลโคกสูง","dustboy_lat":"16.2185478","dustboy_lon":"103.8938174","phase":"1","area":"ตะวันออกเฉียงเหนือ"},
    {"dustboy_name":"โรงพยาบาลส่งเสริมสุขภาพตำบลหนองบ้านหนองนาสร้าง","dustboy_lat":"16.078544","dustboy_lon":"103.641298","phase":"1","area":"ตะวันออกเฉียงเหนือ"},
    {"dustboy_name":"โรงพยาบาลส่งเสริมสุขภาพตำบลบ้านสองห้อง","dustboy_lat":"16.216916","dustboy_lon":"103.91369","phase":"1","area":"ตะวันออกเฉียงเหนือ"},
    {"dustboy_name":"โรงพยาบาลสุวรรณภูมิ","dustboy_lat":"15.608115","dustboy_lon":"103.8002373","phase":"1","area":"ตะวันออกเฉียงเหนือ"},
    {"dustboy_name":"องค์การบริหารส่วนตำบลแก้งแก","dustboy_lat":"16.2064736","dustboy_lon":"103.0973512","phase":"1","area":"ตะวันออกเฉียงเหนือ"},
    {"dustboy_name":"เทศบาลเมืองมหาสารคาม","dustboy_lat":"16.1772946","dustboy_lon":"103.2987832","phase":"1","area":"ตะวันออกเฉียงเหนือ"},
    {"dustboy_name":"สำนักงานสาธารณสุขอำเภอวาปีปทุม จ. มหาสารคาม (เดิม สำนักงานสาธารณสุขจังหวัดมหาสารคาม)","dustboy_lat":"15.8444","dustboy_lon":"103.3794","phase":"1","area":"ตะวันออกเฉียงเหนือ"},
    {"dustboy_name":"สำนักงานสาธารณสุขจังหวัดกาฬสินธุ์","dustboy_lat":"16.4247294","dustboy_lon":"103.512396","phase":"1","area":"ตะวันออกเฉียงเหนือ"},
    {"dustboy_name":"โรงพยาบาลกุฉินารายณ์","dustboy_lat":"16.538817","dustboy_lon":"104.0538204","phase":"1","area":"ตะวันออกเฉียงเหนือ"},
    {"dustboy_name":"สำนักงานสาธารณสุขอำเภอสมเด็จ","dustboy_lat":"16.7044343","dustboy_lon":"103.7483464","phase":"1","area":"ตะวันออกเฉียงเหนือ"},
    {"dustboy_name":"สำนักงานสาธารณสุขอำเภอกาฬสินธุ์","dustboy_lat":"16.4299991","dustboy_lon":"103.5043984","phase":"1","area":"ตะวันออกเฉียงเหนือ"},
    {"dustboy_name":"สำนักงานสาธารณสุขอำเภอกุฉินารายณ์","dustboy_lat":"16.538817","dustboy_lon":"104.0538204","phase":"1","area":"ตะวันออกเฉียงเหนือ"},
    {"dustboy_name":"ศูนย์อนามัยที่ 8 อุดรธานี","dustboy_lat":"17.4487391","dustboy_lon":"102.9024344","phase":"1","area":"ตะวันออกเฉียงเหนือ"},
    {"dustboy_name":"สำนักงานสาธารณสุขจังหวัดอุดรธานี","dustboy_lat":"17.413979","dustboy_lon":"102.789204","phase":"1","area":"ตะวันออกเฉียงเหนือ"},
    {"dustboy_name":"โรงพยาบาลอุดรธานี","dustboy_lat":"17.4147304","dustboy_lon":"102.7794973","phase":"1","area":"ตะวันออกเฉียงเหนือ"},
    {"dustboy_name":"โรงพยาบาลกุมภวาปี","dustboy_lat":"17.105029","dustboy_lon":"103.0175886","phase":"1","area":"ตะวันออกเฉียงเหนือ"},
    {"dustboy_name":"โรงพยาบาลหนองหาน","dustboy_lat":"17.3622759","dustboy_lon":"103.1028408","phase":"1","area":"ตะวันออกเฉียงเหนือ"},
    {"dustboy_name":"โรงพยาบาลบ้านผือ","dustboy_lat":"17.6946362","dustboy_lon":"102.4600934","phase":"1","area":"ตะวันออกเฉียงเหนือ"},
    {"dustboy_name":"สำนักงานสิ่งแวดล้อมภาคที่ 9 (อุดรธานี)","dustboy_lat":"17.343917","dustboy_lon":"102.814054","phase":"1","area":"ตะวันออกเฉียงเหนือ"},
    {"dustboy_name":"สำนักงานสาธารณสุขจังหวัดบึงกาฬ","dustboy_lat":"18.3744016","dustboy_lon":"103.6432653","phase":"1","area":"ตะวันออกเฉียงเหนือ"},
    {"dustboy_name":"โรงพยาบาลศรีวิไล","dustboy_lat":"18.185929","dustboy_lon":"103.7357353","phase":"1","area":"ตะวันออกเฉียงเหนือ"},
    {"dustboy_name":"โรงพยาบาลโซ่พิสัย (แทนเครื่องเดิม)","dustboy_lat":"18.0810754","dustboy_lon":"103.4473127","phase":"1","area":"ตะวันออกเฉียงเหนือ"},
    {"dustboy_name":"โรงพยาบาลบึงโขงหลง","dustboy_lat":"17.969461","dustboy_lon":"104.0418993","phase":"1","area":"ตะวันออกเฉียงเหนือ"},
    {"dustboy_name":"โรงพยาบาลหนองคาย","dustboy_lat":"17.8797037","dustboy_lon":"102.7402298","phase":"1","area":"ตะวันออกเฉียงเหนือ"},
    {"dustboy_name":"โรงพยาบาลสมเด็จพระยุพราชท่าบ่อ","dustboy_lat":"17.8476427","dustboy_lon":"102.5744265","phase":"1","area":"ตะวันออกเฉียงเหนือ"},
    {"dustboy_name":"สาธารณสุขจังหวัดหนองคาย","dustboy_lat":"17.8751254","dustboy_lon":"102.7480011","phase":"1","area":"ตะวันออกเฉียงเหนือ"},
    {"dustboy_name":"สำนักงานสาธารณสุขอำเภอโพนพิสัย","dustboy_lat":"18.0251579","dustboy_lon":"103.075514","phase":"1","area":"ตะวันออกเฉียงเหนือ"},
    {"dustboy_name":"โรงพยาบาลสมเด็จพระยุพราชด่านซ้าย","dustboy_lat":"17.275391","dustboy_lon":"101.1565893","phase":"1","area":"ตะวันออกเฉียงเหนือ"},
    {"dustboy_name":"โรงพยาบาลวังสะพุง","dustboy_lat":"17.2817573","dustboy_lon":"101.75554","phase":"1","area":"ตะวันออกเฉียงเหนือ"},
    {"dustboy_name":"โรงพยาบาลผาขาว","dustboy_lat":"17.0702206","dustboy_lon":"102.0415836","phase":"1","area":"ตะวันออกเฉียงเหนือ"},
    {"dustboy_name":"โรงพยาบาลปากชม","dustboy_lat":"18.0241767","dustboy_lon":"101.8796319","phase":"1","area":"ตะวันออกเฉียงเหนือ"},
    {"dustboy_name":"สำนักงานสาธารณสุขจังหวัดเลย","dustboy_lat":"17.4525229","dustboy_lon":"101.7272395","phase":"1","area":"ตะวันออกเฉียงเหนือ"},
    {"dustboy_name":"โรงพยาบาลสมเด็จพระยุพราชธาตุพนม (เดิม สาธารณสุขจังหวัดนครพนม)","dustboy_lat":"16.9380246","dustboy_lon":"104.709325","phase":"1","area":"ตะวันออกเฉียงเหนือ"},
    {"dustboy_name":"โรงพยาบาลนครพนม","dustboy_lat":"17.413844","dustboy_lon":"104.7752209","phase":"1","area":"ตะวันออกเฉียงเหนือ"},
    {"dustboy_name":"โรงพยาบาลส่งเสริมสุขภาพตำบลเวินพระบาท","dustboy_lat":"17.492343","dustboy_lon":"104.6783507","phase":"1","area":"ตะวันออกเฉียงเหนือ"},
    {"dustboy_name":"สาธารณสุขจังหวัดหนองบัวลำภู","dustboy_lat":"17.207448","dustboy_lon":"102.4443429","phase":"1","area":"ตะวันออกเฉียงเหนือ"},
    {"dustboy_name":"โรงพยาบาลนากลาง","dustboy_lat":"17.3067435","dustboy_lon":"102.1848394","phase":"1","area":"ตะวันออกเฉียงเหนือ"},
    {"dustboy_name":"โรงพยาบาลพระอาจารย์แบน ธนากโร","dustboy_lat":"17.0020917","dustboy_lon":"103.9640158","phase":"1","area":"ตะวันออกเฉียงเหนือ"},
    {"dustboy_name":"สำนักงานสาธารณสุขจังหวัดสกลนคร","dustboy_lat":"17.1570123","dustboy_lon":"104.130164","phase":"1","area":"ตะวันออกเฉียงเหนือ"},
    {"dustboy_name":"โรงพยาบาลสกลนคร","dustboy_lat":"17.1638861","dustboy_lon":"104.15662","phase":"1","area":"ตะวันออกเฉียงเหนือ"},
    {"dustboy_name":"มหาวิทยาลัยเกษตรศาสตร์ วิทยาเขตเฉลิมพระเกียรติ","dustboy_lat":"17.291315","dustboy_lon":"104.1050935","phase":"1","area":"ตะวันออกเฉียงเหนือ"},
    {"dustboy_name":"สำนักงานทรัพยากรธรรมชาติและสิ่งแวดล้อมจังหวัดสกลนคร","dustboy_lat":"17.1575022","dustboy_lon":"104.1310428","phase":"1","area":"ตะวันออกเฉียงเหนือ"},
    {"dustboy_name":"ศูนย์อนามัยที่ 9 นครราชสีมา","dustboy_lat":"14.9196523","dustboy_lon":"101.9718841","phase":"1","area":"ตะวันออกเฉียงเหนือ"},
    {"dustboy_name":"ศูนย์อนามัย10 อุบลราชธานี","dustboy_lat":"15.1276647","dustboy_lon":"104.8947511","phase":"1","area":"ตะวันออกเฉียงเหนือ"},
    {"dustboy_name":"โรงพยาบาลสำโรง","dustboy_lat":"15.0276448","dustboy_lon":"104.7759167","phase":"1","area":"ตะวันออกเฉียงเหนือ"},
    {"dustboy_name":"โรงพยาบาลวารินชําราบ","dustboy_lat":"15.1938277","dustboy_lon":"104.8358895","phase":"1","area":"ตะวันออกเฉียงเหนือ"},
    {"dustboy_name":"โรงพยาบาลสรรพสิทธิประสงค์","dustboy_lat":"15.2362104","dustboy_lon":"104.8643598","phase":"1","area":"ตะวันออกเฉียงเหนือ"},
    {"dustboy_name":"โรงพยาบาลน้ำยืน","dustboy_lat":"14.479155","dustboy_lon":"104.9825523","phase":"1","area":"ตะวันออกเฉียงเหนือ"},
    {"dustboy_name":"โรงพยาบาลสมเด็จพระยุพราชเดชอุดม","dustboy_lat":"14.9160042","dustboy_lon":"105.0592035","phase":"1","area":"ตะวันออกเฉียงเหนือ"},
    {"dustboy_name":"สำนักงานสาธารณสุขจังหวัดอุบลราชธานี","dustboy_lat":"15.2247837","dustboy_lon":"104.8530878","phase":"1","area":"ตะวันออกเฉียงเหนือ"},
    {"dustboy_name":"สำนักงานสาธารณสุขอำเภอพนา จังหวัดอำนาจเจริญ (เดิม เทศบาลเมืองอำนาจเจริญ)","dustboy_lat":"15.683909","dustboy_lon":"104.845005","phase":"1","area":"ตะวันออกเฉียงเหนือ"},
    {"dustboy_name":"สำนักงานสาธารณสุขจังหวัดอำนาจเจริญ","dustboy_lat":"15.9060513","dustboy_lon":"104.6227491","phase":"1","area":"ตะวันออกเฉียงเหนือ"},
    {"dustboy_name":"โรงพยาบาลไทยเจริญ","dustboy_lat":"16.06903","dustboy_lon":"104.4312844","phase":"1","area":"ตะวันออกเฉียงเหนือ"},
    {"dustboy_name":"โรงพยาบาลกุดชุม","dustboy_lat":"16.020084","dustboy_lon":"104.338432","phase":"1","area":"ตะวันออกเฉียงเหนือ"},
    {"dustboy_name":"โรงพยาบาลค้อวัง","dustboy_lat":"15.36605388","dustboy_lon":"104.3613514","phase":"1","area":"ตะวันออกเฉียงเหนือ"},
    {"dustboy_name":"สนง. ป้องกันและบรรเทาสาธารณภัย จ. ยโสธร (เดิม โรงพยาบาลคําเขื่อนแก้ว)","dustboy_lat":"15.803432","dustboy_lon":"104.140645","phase":"1","area":"ตะวันออกเฉียงเหนือ"},
    {"dustboy_name":"โรงพยาบาลสมเด็จพระยุพราชเลิงนกทา","dustboy_lat":"16.1964467","dustboy_lon":"104.5126191","phase":"1","area":"ตะวันออกเฉียงเหนือ"},
    {"dustboy_name":"โรงพยาบาลป่าติ้ว จ. ยโสธร (เดิม สำนักงานสาธารณสุขจังหวัดยโสธร)","dustboy_lat":"15.8322","dustboy_lon":"104.3832","phase":"1","area":"ตะวันออกเฉียงเหนือ"},
    {"dustboy_name":"โรงพยาบาลส่งเสริมสุขภาพตำบลบ้านนิคม","dustboy_lat":"15.6541974","dustboy_lon":"104.2356368","phase":"1","area":"ตะวันออกเฉียงเหนือ"},
    {"dustboy_name":"โรงพยาบาลมุกดาหาร","dustboy_lat":"16.5413584","dustboy_lon":"104.7248202","phase":"1","area":"ตะวันออกเฉียงเหนือ"},
    {"dustboy_name":"รพ.สต. บ้านดงเย็น จ. มุกดาหาร (เดิม สำนักงานสาธารณสุขจังหวัดมุกดาหาร)","dustboy_lat":"16.38281517","dustboy_lon":"104.6982645","phase":"1","area":"ตะวันออกเฉียงเหนือ"},
    {"dustboy_name":"สำนักงานสาธารณสุขจังหวัดศรีสะเกษ","dustboy_lat":"15.09483124","dustboy_lon":"104.3377278","phase":"1","area":"ตะวันออกเฉียงเหนือ"}
]